FLASER 181 1.929 1.937 1.929 1.928 1.93 1.929 1.941 1.945 1.943 1.953 1.959 1.969 1.978 1.984 1.984 1.992 2.01 2.01 2.028 2.036 2.09 3.017 8.205 8.271 6.98 6.514 6.493 6.475 6.462 6.473 6.454 6.446 6.436 6.442 1.775 9.107 8.537 7.604 8.311 9.597 6.565 1.284 1.261 1.31 10.209 10.027 4.041 4.112 4.192 4.267 4.359 4.443 4.537 4.637 4.744 4.866 4.982 4.565 4.361 4.454 4.75 5.04 5.076 5.176 5.327 5.923 5.881 6.183 6.116 6.093 6.264 6.465 7.426 7.382 7.351 7.308 7.272 7.237 7.214 7.182 6.215 7.149 7.133 7.133 7.132 6.43 7.094 7.093 7.083 5.349 5.269 5.202 7.073 7.096 7.092 7.103 7.122 7.12 4.922 5.473 7.14 5.147 7.186 6.552 4.777 4.56 5.357 6.225 6.27 4.397 3.441 5.281 4.769 4.979 4.789 4.601 3.897 4.287 4.12 3.424 3.09 2.898 2.848 2.829 2.848 2.898 3.176 3.246 3.163 3.088 3.024 2.962 2.908 2.854 2.774 2.709 2.664 2.64 2.629 2.585 2.551 2.507 2.48 2.436 2.4 2.372 2.337 2.31 2.299 2.271 2.243 2.221 2.138 2.125 2.142 2.114 2.105 2.088 2.069 2.053 2.034 2.027 2.017 2.008 1.991 1.982 1.974 1.963 1.955 1.945 1.944 1.936 1.925 1.925 1.917 1.908 1.911 1.912 1.912 1.903 1.904 0 0 -0.001455310 0 0 0 pippo 0
FLASER 181 1.941 2.858 2.864 2.88 2.888 2.904 2.923 2.938 12.622 7.495 7.335 0.993 1.005 0.981 7.374 8.017 6.809 6.283 6.275 6.244 6.249 6.229 6.215 6.204 6.196 6.177 6.14 8.661 8.75 8.838 7.305 7.355 8.633 6.184 6.189 9.504 3.687 3.693 3.745 3.807 3.87 3.934 4.008 4.072 4.143 4.229 4.307 4.393 4.489 4.117 3.912 3.968 4.061 4.565 4.643 4.598 4.634 4.756 4.885 5.439 5.386 5.647 5.634 5.561 5.325 5.795 5.958 6.89 6.852 6.809 6.738 6.741 6.708 6.678 6.647 6.62 32.765 6.592 6.578 6.572 6.55 5.885 6.419 6.504 6.495 6.508 6.469 4.664 4.613 6.483 6.497 6.495 6.504 6.524 6.539 6.559 4.761 4.901 6.602 4.576 6.627 6.279 4.333 4.149 4.048 5.668 5.709 5.602 4.636 5.093 2.999 4.19 4.523 4.364 4.226 4.104 3.965 3.443 3.752 3.629 3.16 2.898 3.269 2.718 2.416 2.365 2.347 2.339 2.365 2.393 1.966 1.936 1.941 1.95 2.034 2.559 2.525 2.49 2.454 2.419 2.42 2.327 2.316 1.839 1.802 1.783 1.757 1.74 1.742 1.758 2.133 2.116 2.097 2.079 2.061 2.052 2.026 2.017 2 1.999 1.981 1.968 1.98 1.97 1.893 1.932 1.935 1.905 1.905 1.896 1.887 1.888 1.88 1.883 1.883 1.874 1.875 1.876 1.876 1.877 1.877 0.585827 0.030122 0.05596980 0 0 0 pippo 0
FLASER 181 15.674 12.519 12.475 12.491 12.524 12.548 7.264 7.308 7.364 7.989 7.054 7.897 6.673 6.134 6.102 6.091 6.055 6.032 6.028 6.012 6.003 5.976 8.313 8.385 8.46 8.539 7.098 7.047 7.305 3.409 3.412 3.446 3.496 3.54 3.583 3.628 3.685 3.737 3.79 3.855 3.917 3.982 4.047 4.108 3.535 3.538 3.599 3.673 3.756 4.018 4.247 4.203 4.281 4.362 4.46 5.072 5.026 4.97 5.262 5.23 5.152 4.982 5.278 5.416 5.553 6.445 6.418 6.372 6.312 6.302 6.279 6.245 6.215 6.19 5.013 6.133 6.126 6.103 6.085 6.047 5.341 5.934 6.015 6.006 5.997 5.998 4.212 4.137 4.132 5.99 5.99 5.999 6.006 6.025 6.035 6.054 3.765 4.603 6.12 6.136 4.073 6.132 5.882 5.674 3.757 3.7 5.188 5.225 5.224 4.646 4.138 3.441 4.303 4.271 2.424 4.02 3.91 3.785 3.668 3.559 3.445 3.008 3.284 3.201 3.126 2.771 2.553 2.496 2.864 2.806 2.725 2.055 2.007 1.988 1.971 1.972 1.988 2.015 2.034 2.374 2.337 2.311 2.282 2.255 2.226 2.199 2.18 2.163 2.144 2.127 2.126 2.063 2.092 2.141 5.305 5.523 5.762 6.036 6.339 6.672 7.017 7.452 7.912 8.459 9.062 11.763 11.72 11.689 12.911 14.362 16.143 18.785 21.15 21.163 21.14 9.319 9.382 1.805 1.74 1.721 1.703 1.09109 0.0576555 0.0567580 0 0 0 pippo 0
FLASER 181 12.325 7.664 7.228 7.261 7.301 7.345 7.623 7.813 6.034 5.991 5.954 5.919 5.893 5.861 5.841 5.807 5.795 5.761 8.091 8.147 8.211 3.225 3.172 3.2 3.228 3.255 3.291 3.325 3.361 3.395 3.43 3.472 3.515 3.551 3.605 3.651 3.708 3.752 3.786 3.529 3.301 3.35 3.708 3.953 3.967 3.905 3.831 3.793 3.864 3.934 4.016 4.678 4.643 4.589 4.543 4.877 4.806 4.304 4.733 4.812 4.909 5.021 5.348 6.017 5.978 5.935 5.848 5.869 5.839 5.818 5.783 5.749 5.699 5.679 5.661 5.631 5.619 5.59 5.36 4.829 5.54 5.523 5.513 5.503 3.798 5.515 5.487 5.489 5.49 5.486 5.498 5.498 5.504 5.513 5.531 5.548 5.558 3.252 3.98 5.622 5.652 3.595 5.707 5.373 5.403 3.453 3.332 3.234 3.036 3.499 3.524 4.518 4.353 3.669 2.982 3.84 3.858 3.304 3.619 3.515 2.003 3.327 3.244 3.162 3.087 3.016 2.55 2.813 2.823 2.769 2.714 2.426 2.433 2.568 2.134 2.122 2.445 2.41 2.373 2.347 2.309 1.703 1.706 1.674 1.657 1.641 1.641 1.657 1.666 1.716 1.71 2.048 2.032 2.014 1.996 1.988 1.968 1.96 1.949 1.939 1.928 1.919 1.91 1.895 1.884 1.861 1.956 8.866 11.629 11.594 12.397 14.287 16.892 20.84 21.057 21.1 21.082 21.08 9.285 9.367 9.442 1.58025 0.0841092 0.05491720 0 0 0 pippo 0
FLASER 181 7.286 7.324 7.065 5.988 5.943 5.898 5.853 5.815 5.77 5.732 5.699 5.664 3.018 3.012 3.038 3.047 3.075 3.092 3.119 3.137 3.145 3.182 3.209 3.228 3.256 3.292 3.318 3.352 3.396 3.411 3.216 3.203 2.972 3.001 3.046 3.26 3.652 3.628 3.638 3.566 3.498 3.438 3.557 3.553 3.597 3.654 4.277 4.299 4.236 4.183 4.127 4.499 4.415 3.993 4.325 4.415 4.492 4.572 4.609 4.865 5.631 5.585 5.542 5.492 5.403 5.401 5.367 5.33 5.293 5.257 4.045 5.203 5.177 5.149 5.13 5.103 5.093 4.254 4.233 5.023 5.024 5.014 5.001 3.299 3.26 3.195 3.172 4.98 4.974 4.982 4.981 4.989 5.007 5.006 5.04 5.03 5.048 5.066 3.238 3.507 5.121 5.14 5.166 3.164 4.359 4.916 4.711 4.151 3.868 2.752 2.775 2.548 4.335 4.122 3.687 3.886 3.215 3.496 3.543 2.457 3.354 3.256 2.854 3.108 3.035 2.962 2.901 2.834 1.704 1.583 2.656 2.62 2.577 2.533 2.139 2.438 2.411 2.374 2.338 2.255 2.274 2.003 2.218 2.199 2.172 1.838 1.788 1.888 2.081 2.055 2.038 2.019 2.002 1.984 1.932 1.902 1.454 1.479 1.443 1.424 1.425 1.419 1.419 1.426 1.435 1.462 1.468 1.839 1.83 1.821 1.821 1.814 1.816 1.808 1.809 1.809 1.818 1.817 1.821 1.809 1.797 2.0913 0.11221 0.05399680 0 0 0 pippo 0
FLASER 181 3.46 3.382 3.319 3.368 3.419 3.402 3.449 3.502 4.095 4.14 4.093 4.017 3.961 4.348 4.262 3.681 4.113 4.163 4.231 4.311 4.39 4.443 4.616 5.433 5.377 5.323 5.277 5.175 5.196 5.15 5.104 5.076 5.038 5.011 4.974 4.955 4.928 4.901 4.882 4.866 4.839 4.152 4.225 4.816 4.778 4.769 4.76 3.035 4.741 2.961 2.908 2.898 4.732 4.726 4.731 4.737 4.743 4.743 4.761 4.767 4.784 4.792 4.819 3.958 2.636 4.871 4.889 4.93 2.881 4.163 4.654 4.482 4.509 3.901 3.938 2.979 2.529 4.036 2.317 3.927 3.772 3.693 3.573 2.969 3.365 3.154 2.486 2.416 3.035 2.608 2.9 2.835 2.78 2.716 2.665 2.612 2.571 2.525 2.465 1.385 1.382 2.332 2.329 2.189 1.965 2.237 2.208 2.183 2.156 2.13 2.102 1.854 2.001 2.039 2.022 2.004 1.985 1.65 1.641 1.937 1.927 1.908 1.908 1.89 1.873 1.864 1.868 1.853 1.861 1.433 1.385 1.383 1.361 1.35 1.342 1.342 1.342 1.351 1.369 1.4 1.432 1.776 1.783 1.782 1.78 1.788 1.787 1.796 1.795 1.805 1.804 1.831 1.826 1.848 6.858 6.414 5.975 5.588 5.245 4.95 4.676 4.433 4.222 4.073 4.159 4.527 3.713 3.495 3.39 3.278 3.163 3.053 2.969 2.904 2.725 2.683 2.269 2.196 2.161 2.141 2.134 2.34711 0.126159 0.714230 0 0 0 pippo 0
FLASER 181 5.04 3.873 4.986 4.957 4.928 4.91 4.881 4.865 4.205 4.2 4.755 4.698 4.787 4.77 3.068 3.036 4.781 2.947 2.926 4.744 4.732 4.741 4.738 4.741 4.746 4.754 4.763 4.779 4.796 4.813 4.814 2.525 3.161 4.884 4.915 4.92 2.846 4.146 4.67 4.524 3.926 3.568 3.959 2.516 2.62 2.344 2.316 3.87 3.689 3.65 3.006 3.273 3.33 3.237 2.24 3.08 2.876 2.698 2.873 2.807 2.752 2.699 2.648 2.595 2.544 2.501 1.484 1.386 1.971 2.349 2.312 1.956 2.237 2.218 2.19 2.172 2.103 2.118 2.026 1.854 2.048 2.032 2.012 1.995 1.67 1.637 1.709 1.926 1.917 1.908 1.89 1.881 1.873 1.846 1.861 1.879 1.751 1.367 1.405 1.366 1.342 1.333 1.332 1.341 1.342 1.361 1.382 1.42 1.631 1.776 1.776 1.774 1.782 1.781 1.79 1.797 1.797 1.805 1.812 1.838 1.847 1.848 6.724 6.24 5.813 5.442 5.125 4.835 4.571 4.343 4.076 4.089 4.158 4.531 3.48 3.466 3.34 3.216 3.111 3.024 2.974 2.879 2.632 2.629 2.225 2.212 2.153 2.135 2.117 2.077 2.058 2.068 2.07 2.017 2.011 2.036 2.02 2.034 2.008 2.002 2.021 2.016 2.008 1.997 1.999 1.989 1.996 1.951 1.903 1.904 1.906 1.899 3.848 2.413 2.175 2.162 2.144 4.627 4.829 5.047 5.309 2.34643 0.125001 1.291930 0 0 0 pippo 0
FLASER 181 2.981 2.926 2.902 2.911 4.742 4.741 4.747 4.755 4.754 4.763 4.771 4.787 4.804 4.814 4.061 2.502 3.16 4.892 4.812 2.887 2.844 4.409 4.568 4.482 3.913 3.596 3.968 2.53 2.493 2.322 3.949 3.85 3.743 3.475 2.978 3.342 3.302 3.221 2.308 3.064 2.632 2.921 2.854 2.79 2.735 2.684 2.631 2.58 2.536 2.469 1.395 1.401 2.36 2.339 2.294 1.959 2.246 2.21 2.19 2.164 2.119 2.118 1.853 1.931 2.039 2.021 2.013 1.986 1.644 1.635 1.938 1.926 1.908 1.898 1.889 1.88 1.861 1.808 1.857 1.869 1.426 1.351 1.392 1.365 1.344 1.333 1.333 1.334 1.343 1.362 1.383 1.417 1.767 1.775 1.775 1.774 1.773 1.781 1.787 1.786 1.794 1.803 1.821 1.838 1.843 7.208 6.679 6.2 5.778 5.404 5.09 4.807 4.546 4.318 4.076 4.081 4.163 4.523 3.479 3.446 3.324 3.201 3.106 3.027 2.975 2.896 2.603 2.604 2.218 2.183 2.144 2.13 2.093 2.061 2.046 2.054 2.057 2.021 2.002 2.045 2.044 2.035 2.017 1.989 2.016 2.01 2 2.004 1.99 1.99 1.994 1.983 1.905 1.897 1.893 1.9 3.827 3.284 2.169 2.163 2.152 2.203 4.799 5.019 5.267 5.553 5.031 5.556 5.302 5.49 5.471 5.452 5.426 5.407 5.389 5.373 5.357 4.267 4.263 4.573 4.566 2.34643 0.124032 1.569160 0 0 0 pippo 0
FLASER 181 3.873 3.9 3.855 3.653 3.52 2.795 2.288 2.114 3.09 2.98 2.775 2.447 2.715 2.638 1.212 1.129 1.24 2.383 2.329 2.272 2.225 2.18 2.134 2.089 1.679 1.846 1.975 1.945 1.916 1.88 1.852 1.826 1.576 1.533 1.748 1.728 1.702 1.685 1.359 1.315 1.296 1.6 1.591 1.575 1.565 1.557 1.54 1.53 1.513 1.503 1.445 1.443 1.491 1.07 0.977 1.018 0.996 0.977 0.965 0.955 0.956 0.948 0.947 0.955 0.955 0.963 0.985 1.003 1.027 1.382 1.393 1.392 1.391 1.391 1.39 1.397 1.397 1.406 1.408 1.419 1.417 1.425 1.444 1.471 1.433 1.416 5.623 5.267 4.97 4.696 4.443 4.23 4.041 3.847 3.702 3.748 3.867 4.187 3.278 3.137 3.07 2.971 2.918 2.862 2.79 2.715 2.643 2.57 2.507 2.299 2.304 1.999 1.921 1.893 1.825 1.847 1.83 1.832 1.797 1.846 1.833 1.835 1.831 1.835 1.819 1.815 1.801 1.792 1.79 1.792 1.793 1.792 1.765 1.756 1.791 1.783 1.793 1.793 1.737 1.76 1.74 1.769 1.778 1.789 1.742 2.05 2.035 2.039 2.007 5.45 5.422 5.404 5.386 5.37 5.353 5.338 5.329 5.327 5.307 4.352 4.238 4.358 4.551 4.717 5.307 5.315 5.304 5.338 5.364 5.362 5.377 5.241 5.321 4.533 3.961 3.814 3.823 3.831 3.85 3.869 3.887 2.33917 0.512601 1.975790 0 0 0 pippo 0
FLASER 181 2.695 2.58 2.472 2.358 2.26 1.564 1.553 2.02 1.958 1.897 1.841 1.779 1.362 1.336 1.579 1.073 1.049 1.077 1.202 1.456 1.42 1.392 1.365 1.336 1.303 0.661 0.585 0.558 0.601 0.59 0.591 0.585 0.573 0.56 0.557 0.549 0.559 0.547 0.548 0.548 0.55 0.56 0.56 0.571 0.57 0.58 0.589 0.562 0.561 0.575 0.871 0.951 0.941 0.933 0.932 0.925 0.924 0.916 0.907 0.916 0.907 0.908 0.894 0.895 0.888 0.889 0.891 0.892 0.885 0.891 0.892 0.891 0.888 0.896 0.896 0.91 0.932 0.907 0.932 0.911 0.92 0.986 6.189 5.718 5.33 4.977 4.677 4.399 4.138 3.928 3.729 3.551 3.423 3.187 3.185 3.274 3.378 3.74 3.763 2.615 2.624 2.615 2.549 2.461 2.395 2.328 2.279 2.212 2.167 2.121 2.076 2.031 1.985 1.844 1.828 1.8 1.772 1.502 1.457 1.423 1.421 1.43 1.376 1.359 1.351 1.353 1.343 1.318 1.389 1.391 1.39 1.365 1.357 1.393 1.392 1.402 1.404 1.405 1.417 1.417 1.423 1.423 1.426 1.427 1.435 1.429 1.42 1.433 1.453 1.427 1.437 1.435 1.421 1.452 1.485 1.425 1.493 1.518 1.528 1.542 1.79 1.79 5.122 5.123 5.13 4.13 4.081 4.108 4.436 5.188 5.205 5.221 5.239 5.27 5.274 5.31 5.171 5.363 5.39 4.506 4.157 2.12496 0.996742 1.983420 0 0 0 pippo 0
FLASER 181 0.799 0.79 0.773 0.751 0.742 0.726 0.718 0.699 0.685 0.675 0.675 0.664 0.664 0.655 0.646 0.632 0.631 0.622 0.622 0.612 0.613 0.605 0.604 0.597 0.589 0.59 0.581 0.582 0.581 0.571 0.571 0.572 0.572 0.562 0.571 0.569 0.562 0.563 0.559 0.556 0.565 0.558 0.547 0.536 0.532 0.53 0.571 0.585 0.574 19.73 8.05 8.137 8.228 8.332 7.773 6.995 6.286 5.652 5.275 4.89 4.558 4.252 3.982 3.745 3.545 3.347 3.201 3.085 2.848 2.802 2.83 2.909 3.326 3.361 3.4 2.239 2.238 2.267 2.205 2.147 2.08 2.028 1.971 1.93 1.883 1.848 1.801 1.767 1.724 1.698 1.663 1.637 1.552 1.439 1.494 1.451 1.431 1.412 1.393 1.196 1.136 1.101 1.091 1.082 1.096 1.095 1.099 1.008 0.998 1.004 1.004 1.002 1.013 1.014 1.08 1.081 1.093 1.096 1.101 1.105 1.105 1.098 1.125 1.133 1.134 1.15 1.132 1.133 1.106 1.115 1.12 1.142 1.145 1.15 1.14 1.156 1.172 1.191 1.2 1.21 1.219 1.238 1.252 1.293 1.347 1.288 1.299 1.336 1.349 1.363 5.118 5.149 5.174 5.201 5.228 5.241 5.172 5.325 5.361 4.473 4.885 4.098 3.931 3.773 3.788 3.819 3.856 3.891 3.937 3.971 4.017 6.03 6.09 5.566 5.479 5.407 5.409 5.55 6.026 5.917 5.808 1.94052 1.33238 2.424030 0 0 0 pippo 0
FLASER 181 2.306 2.335 2.381 2.427 2.479 2.533 2.587 2.65 2.718 2.797 2.746 2.725 2.894 2.984 3.079 3.171 3.279 3.392 3.481 3.56 3.686 3.838 3.993 4.161 4.35 4.56 4.785 5.034 5.306 5.616 5.974 6.391 6.862 7.413 10.023 9.996 9.959 10.947 12.315 14.21 17 19.464 19.476 19.463 19.455 32.767 7.626 7.682 7.755 7.836 7.925 7.367 6.248 5.384 4.846 4.375 3.977 3.631 3.349 3.096 2.888 2.706 2.541 2.355 2.33 2.373 2.427 2.744 2.839 2.851 1.738 1.77 1.734 1.711 1.667 1.615 1.58 1.522 1.471 1.432 1.404 1.366 1.319 1.301 1.272 1.236 1.21 1.192 1.158 1.131 1.114 1.095 0.932 0.915 0.919 0.951 0.933 0.917 0.906 0.885 0.877 0.86 0.851 0.843 0.745 0.642 0.621 0.603 0.58 0.587 0.571 0.57 0.562 0.55 0.581 0.567 0.587 0.565 0.616 0.564 0.568 0.531 0.51 0.504 0.523 0.526 0.524 0.517 0.538 0.566 0.573 0.577 0.525 0.55 0.579 0.586 0.587 0.595 0.604 0.613 0.619 0.628 0.641 0.648 0.657 0.662 0.678 0.686 0.694 0.712 0.718 0.734 0.751 0.773 0.782 0.801 0.818 0.836 0.862 0.878 0.911 0.929 0.951 0.981 1.002 1.044 1.277 1.083 1.09 1.106 1.14 3.675 3.708 3.754 3.803 3.856 3.91 3.955 4.313 5.371 5.373 1.53984 1.67438 2.431390 0 0 0 pippo 0
FLASER 181 4.567 4.667 4.708 3.814 3.87 2.061 2.105 2.148 2.178 2.205 2.233 2.27 2.306 2.344 2.381 2.426 2.463 2.516 2.561 2.614 2.669 2.733 2.707 2.705 2.818 2.888 2.959 3.048 3.12 3.215 3.309 3.42 3.528 3.648 3.763 3.864 3.981 4.138 4.302 4.5 4.699 4.926 5.137 5.438 5.753 6.109 6.516 6.961 7.429 9.92 9.887 9.861 10.782 12.141 13.807 16.598 19.153 19.307 19.347 19.332 19.282 7.513 7.56 7.625 7.708 7.782 7.227 5.889 5.057 4.493 4.021 3.612 3.294 3.02 2.774 2.571 2.412 2.205 2.175 2.191 2.264 2.273 2.667 2.678 1.588 1.581 1.637 1.576 1.53 1.48 1.434 1.391 1.343 1.293 1.253 1.217 1.19 1.153 1.128 1.101 1.074 1.047 1.021 1.004 0.979 0.961 0.951 0.933 0.915 0.751 0.73 0.792 0.778 0.774 0.758 0.75 0.741 0.733 0.723 0.715 0.715 0.707 0.698 0.689 0.689 0.674 0.502 0.474 0.473 0.464 0.464 0.452 0.443 0.443 0.444 0.435 0.435 0.435 0.435 0.421 0.444 0.457 0.43 0.448 0.434 0.46 0.462 0.434 0.451 0.439 0.416 0.402 0.403 0.404 0.413 0.414 0.414 0.425 0.425 0.425 0.434 0.444 0.44 0.45 0.488 0.515 0.521 0.533 0.539 0.551 0.566 0.571 0.589 0.597 0.619 0.628 0.65 0.668 0.677 0.7 0.718 1.42038 1.797 2.15090 0 0 0 pippo 0
FLASER 181 1.877 5.728 5.746 5.766 5.777 5.471 5.051 4.534 4.745 5.087 5.459 5.152 4.906 4.708 4.487 4.523 2.146 1.976 1.991 2.101 2.118 2.135 2.164 2.182 2.2 2.228 2.257 2.285 2.312 2.341 2.378 2.415 2.442 2.487 2.522 2.565 2.608 2.606 2.554 2.684 2.735 2.798 2.853 2.919 2.983 3.064 3.137 3.22 3.302 3.403 3.495 3.601 3.717 3.823 3.915 4.037 4.177 4.343 4.504 4.703 4.861 5.129 5.386 5.681 5.989 6.348 6.756 7.166 9.67 9.626 9.589 9.871 10.94 12.142 13.656 16.339 18.786 19.021 19.062 19.042 19.016 7.209 7.271 7.343 7.41 7.49 6.703 5.241 4.505 3.927 3.47 3.103 2.797 2.552 2.344 2.178 1.936 1.916 1.87 1.858 1.932 1.952 2.341 2.349 1.517 1.25 1.275 1.271 1.282 1.259 1.21 1.159 1.123 1.085 1.057 1.022 0.995 0.968 0.951 0.923 0.891 0.874 0.858 0.832 0.816 0.807 0.789 0.767 0.758 0.741 0.733 0.724 0.715 0.698 0.689 0.681 0.671 0.672 0.653 0.653 0.644 0.631 0.629 0.62 0.62 0.532 0.495 0.494 0.485 0.476 0.485 0.565 0.527 0.53 0.523 0.521 0.513 0.513 0.514 0.514 0.504 0.503 0.504 0.504 0.505 0.505 0.497 0.497 0.497 0.497 0.497 0.491 0.491 0.491 0.497 0.497 0.497 0.495 0.496 0.506 0.496 1.27518 2.09461 1.767640 0 0 0 pippo 0
FLASER 181 1.863 1.865 1.863 2.145 1.873 1.847 1.857 1.89 1.883 1.867 1.893 1.894 1.889 1.846 1.905 1.913 1.922 1.932 1.952 1.961 1.97 1.982 2 2.009 2.027 2.038 2.064 2.072 2.099 2.118 2.135 2.153 2.181 2.199 2.227 2.246 2.266 2.289 2.226 2.297 2.324 2.362 2.399 2.434 2.479 2.524 2.551 2.619 2.663 2.714 2.769 2.832 2.881 2.953 3.024 3.087 3.162 3.246 3.33 3.42 3.527 3.626 3.746 3.864 3.988 4.104 4.237 4.4 4.596 4.748 4.954 5.193 5.439 5.742 6.037 6.4 6.778 9.157 9.121 9.085 9.106 10.014 11.334 12.364 14.02 16.054 18.534 18.519 18.529 18.515 18.474 6.704 6.758 6.819 6.888 6.956 6.362 5.069 4.22 3.789 3.351 3.011 2.714 2.485 2.297 2.137 1.999 1.892 1.803 1.708 1.612 1.403 1.428 1.412 1.411 1.388 1.435 1.445 1.453 1.871 1.89 1.908 1.927 1.947 1.966 1.98 2.006 1.339 0.803 0.849 0.838 0.84 0.853 0.821 0.811 0.794 0.777 0.755 0.745 0.729 0.72 0.711 0.702 0.693 0.685 0.675 0.666 0.658 0.648 0.634 0.634 0.616 0.616 0.607 0.608 0.599 0.598 0.589 0.58 0.58 0.58 0.58 0.571 0.562 0.562 0.562 0.562 0.553 0.553 0.544 0.544 0.545 0.536 0.536 0.538 0.528 0.531 0.534 0.519 0.532 0.527 1.23499 2.62996 1.601040 0 0 0 pippo 0
FLASER 181 1.839 1.84 1.848 1.839 1.843 1.845 1.849 1.854 1.858 1.864 1.873 1.881 1.89 1.898 1.906 1.906 1.925 1.936 1.945 1.953 1.971 1.984 1.993 2.012 1.971 1.928 1.957 2.009 2.026 2.044 2.062 2.089 2.115 2.143 2.161 2.188 2.207 2.249 2.272 2.299 2.328 2.365 2.402 2.439 2.474 2.527 2.561 2.613 2.666 2.716 2.769 2.824 2.883 2.955 3.018 3.089 3.164 3.247 3.33 3.43 3.529 3.639 3.762 3.88 3.992 4.105 4.23 4.4 4.575 4.782 4.993 5.232 5.484 5.782 6.102 8.679 8.643 8.605 8.568 8.561 9.318 10.82 11.321 12.59 14.557 17.075 17.998 18.008 18.002 17.983 6.123 6.17 6.226 6.287 6.347 6.413 5.922 4.916 4.205 3.692 3.302 2.971 2.706 2.471 2.274 2.113 1.972 1.879 1.81 1.712 1.626 1.531 1.463 1.395 1.34 1.285 1.228 1.183 1.139 1.105 1.07 1.039 0.909 0.931 0.947 0.934 0.938 0.939 0.91 0.932 0.983 1.001 1.085 1.51 1.53 1.557 1.586 1.622 1.65 1.676 1.718 1.753 1.787 1.822 1.162 1.225 1.184 1.184 1.207 1.198 1.18 1.173 1.177 1.151 1.146 1.132 1.15 1.133 1.123 1.122 1.133 1.114 1.059 0.589 0.494 0.493 0.483 0.472 0.484 0.491 0.594 0.544 0.541 0.542 0.551 0.545 0.539 0.533 0.538 0.534 0.534 1.219 3.16165 1.604560 0 0 0 pippo 0
FLASER 181 1.814 1.809 1.807 1.805 1.805 1.802 1.801 1.794 1.802 1.801 1.805 1.809 1.816 1.821 1.789 1.802 1.798 1.797 1.805 1.813 1.821 1.832 1.84 1.848 1.858 1.869 1.886 1.895 1.916 1.914 1.948 1.962 1.972 1.992 2.012 2.029 2.046 2.073 2.1 2.118 2.146 2.164 2.191 2.226 2.254 2.282 2.319 2.357 2.393 2.439 2.474 2.519 2.563 2.616 2.668 2.719 2.773 2.837 2.904 2.967 3.039 3.121 3.196 3.29 3.373 3.438 3.587 3.693 3.829 3.945 4.061 4.201 4.355 4.53 4.734 4.95 5.183 5.441 5.735 8.169 8.133 8.09 8.056 8.013 8.572 9.364 10.303 11.487 13.017 14.775 17.316 17.451 17.487 17.464 8.365 5.638 5.699 5.723 5.768 5.807 5.879 5.936 5.209 4.352 3.835 3.398 3.094 2.841 2.621 2.425 2.279 2.143 2.026 1.918 1.822 1.73 1.642 1.567 1.504 1.439 1.382 1.326 1.28 1.234 1.188 1.144 1.117 1.082 1.051 1.011 0.984 0.957 0.939 0.912 0.89 0.871 0.846 0.828 0.811 0.793 0.787 0.764 0.746 0.739 0.721 0.712 0.703 0.702 0.693 0.677 0.669 0.66 0.65 0.642 0.641 0.627 0.618 0.644 0.569 0.555 0.568 0.565 0.6 0.6 0.626 0.614 0.611 0.652 1.077 0.586 0.596 0.581 1.04 0.997 0.937 0.997 1.009 0.994 1.025 1.027 0.993 1.23737 3.69357 1.518660 0 0 0 pippo 0
FLASER 181 1.726 1.719 1.72 1.711 1.712 1.712 1.71 1.71 1.717 1.725 1.723 1.721 1.721 1.73 1.727 1.747 1.746 1.754 1.764 1.771 1.78 1.789 1.797 1.806 1.815 1.826 1.835 1.852 1.861 1.879 1.889 1.907 1.916 1.946 1.954 1.982 1.993 2.021 2.039 2.066 2.084 2.111 2.136 2.173 2.202 2.228 2.255 2.292 2.329 2.376 2.413 2.45 2.503 2.548 2.6 2.653 2.703 2.766 2.821 2.888 2.961 3.007 3.114 3.154 3.283 3.385 3.493 3.618 3.726 3.843 3.964 4.094 4.258 4.416 4.604 4.818 5.044 5.286 7.694 7.649 7.612 7.578 7.548 7.732 8.37 9.766 10.029 11.237 12.639 14.398 16.853 16.959 16.984 16.965 16.958 31.411 5.186 5.239 5.271 5.302 5.342 5.411 5.455 4.818 4.198 3.699 3.346 3.047 2.752 2.595 2.447 2.303 2.191 2.076 1.973 1.865 1.783 1.703 1.622 1.55 1.496 1.441 1.384 1.338 1.291 1.246 1.209 1.174 1.138 1.103 1.075 1.044 1.014 0.995 0.967 0.95 0.923 0.9 0.884 0.867 0.85 0.832 0.816 0.806 0.791 0.781 0.759 0.749 0.741 0.724 0.724 0.717 0.707 0.699 0.691 0.681 0.672 0.673 0.663 0.654 0.654 0.645 0.631 0.631 0.622 0.623 0.621 0.612 0.613 0.604 0.603 0.603 0.594 0.594 0.594 0.592 0.593 0.585 0.588 0.581 0.581 1.26329 4.20174 1.518020 0 0 0 pippo 0
FLASER 181 1.685 1.676 1.667 1.676 1.671 1.665 1.667 1.659 1.66 1.661 1.659 1.66 1.658 1.665 1.663 1.662 1.669 1.666 1.674 1.682 1.69 1.69 1.697 1.707 1.717 1.717 1.725 1.743 1.751 1.758 1.769 1.775 1.795 1.802 1.819 1.83 1.846 1.864 1.889 1.9 1.92 1.94 1.959 1.986 2.008 2.034 2.05 2.076 2.112 2.148 2.175 2.202 2.24 2.276 2.314 2.352 2.389 2.435 2.479 2.534 2.572 2.638 2.699 2.727 2.825 2.9 2.972 3.054 3.135 3.23 3.324 3.435 3.545 3.672 3.781 3.91 4.042 4.2 4.369 4.564 4.778 7.244 7.209 7.165 7.122 7.101 7.067 7.248 7.84 8.859 9.335 10.368 11.464 13.792 15.562 16.485 16.508 16.489 16.475 16.438 16.467 4.698 4.739 4.787 4.844 4.892 4.951 4.994 5.038 4.338 3.881 3.487 3.191 2.947 2.734 2.548 2.392 2.275 2.196 2.084 1.992 1.893 1.809 1.731 1.669 1.607 1.545 1.491 1.446 1.399 1.352 1.314 1.268 1.241 1.204 1.169 1.142 1.115 1.088 1.067 1.04 1.018 0.991 0.973 0.954 0.936 0.919 0.897 0.89 0.863 0.854 0.839 0.828 0.822 0.805 0.796 0.787 0.78 0.765 0.757 0.749 0.749 0.732 0.732 0.724 0.723 0.714 0.706 0.705 0.696 0.696 0.687 0.687 0.678 0.677 0.669 0.669 0.66 0.662 0.653 0.654 1.305 4.69747 1.435820 0 0 0 pippo 0
FLASER 181 1.607 1.598 1.59 1.583 1.585 1.576 1.569 1.57 1.572 1.564 1.563 1.573 1.572 1.569 1.568 1.574 1.573 1.58 1.588 1.587 1.596 1.603 1.611 1.612 1.628 1.63 1.639 1.648 1.65 1.666 1.674 1.683 1.701 1.709 1.726 1.735 1.753 1.761 1.778 1.795 1.813 1.831 1.849 1.867 1.894 1.912 1.94 1.968 1.989 2.025 2.051 2.078 2.113 2.143 2.16 2.223 2.251 2.291 2.336 2.382 2.437 2.483 2.544 2.606 2.667 2.737 2.809 2.883 2.958 3.047 3.14 3.233 3.338 3.459 3.583 3.696 3.816 3.951 4.11 4.294 6.766 6.729 6.689 6.659 6.622 6.584 6.562 6.774 7.328 7.983 8.809 9.657 10.677 12.437 14.14 15.994 15.958 15.99 15.982 15.973 15.959 32.763 4.185 4.212 4.258 4.302 4.348 4.402 4.454 4.507 4.569 3.966 3.697 3.386 3.137 2.924 2.744 2.586 2.466 2.354 2.252 2.152 2.057 1.98 1.817 1.804 1.734 1.682 1.621 1.576 1.532 1.495 1.45 1.403 1.365 1.337 1.299 1.273 1.245 1.208 1.182 1.155 1.137 1.111 1.093 1.071 1.054 1.031 1.015 0.996 0.978 0.969 0.951 0.942 0.934 0.918 0.907 0.896 0.879 0.869 0.86 0.853 0.844 0.834 0.829 0.819 0.811 0.802 0.803 0.792 0.785 0.777 0.777 0.763 0.763 0.762 0.754 0.754 0.755 0.747 0.741 1.37348 5.20664 1.434890 0 0 0 pippo 0
FLASER 181 1.509 1.502 1.503 1.497 1.488 1.489 1.486 1.479 1.48 1.481 1.48 1.48 1.479 1.475 1.482 1.489 1.487 1.492 1.501 1.5 1.517 1.516 1.516 1.525 1.534 1.544 1.553 1.552 1.562 1.571 1.588 1.598 1.607 1.624 1.624 1.641 1.65 1.667 1.685 1.702 1.72 1.729 1.755 1.773 1.773 1.814 1.831 1.857 1.875 1.892 1.941 1.968 1.999 2.036 2.071 2.107 2.143 2.18 2.224 2.272 2.309 2.366 2.421 2.475 2.538 2.6 2.669 2.738 2.82 2.895 2.977 3.078 3.171 3.287 3.413 3.522 3.643 3.776 6.332 6.283 6.252 6.218 6.182 6.158 6.132 6.091 6.034 3.305 3.294 3.321 8.385 9.376 10.406 3.532 3.48 3.494 15.489 15.506 15.488 15.47 32.763 32.763 15.429 3.679 3.724 3.761 3.797 3.846 3.892 3.937 3.982 4.038 4.086 3.742 3.494 3.228 3.031 2.857 2.707 2.596 2.472 2.373 2.262 2.168 2.076 2.003 1.925 1.861 1.798 1.737 1.685 1.642 1.589 1.544 1.516 1.437 1.425 1.397 1.369 1.331 1.313 1.285 1.257 1.239 1.213 1.193 1.166 1.149 1.131 1.114 1.097 1.079 1.068 1.05 1.042 1.018 1.011 1.002 0.984 0.975 0.967 0.958 0.948 0.939 0.931 0.922 0.914 0.906 0.9 0.883 0.882 0.875 0.869 0.867 0.867 0.858 0.858 0.851 0.842 0.844 0.836 1.44265 5.71565 1.439810 0 0 0 pippo 0
FLASER 181 1.426 1.418 1.41 1.413 1.406 1.399 1.401 1.395 1.388 1.39 1.389 1.389 1.396 1.394 1.391 1.396 1.403 1.41 1.408 1.417 1.424 1.424 1.433 1.432 1.443 1.443 1.452 1.462 1.475 1.463 1.471 1.499 1.508 1.518 1.527 1.536 1.543 1.551 1.579 1.596 1.614 1.633 1.641 1.66 1.677 1.703 1.728 1.743 1.769 1.794 1.82 1.846 1.873 1.909 1.939 1.985 2.006 2.052 2.087 2.132 2.177 2.223 2.27 2.326 2.382 2.438 2.501 2.562 2.63 2.708 2.788 2.88 2.967 3.076 3.194 3.316 5.688 5.847 5.804 5.787 5.758 5.711 5.682 5.65 5.61 5.583 5.679 6.113 6.627 7.786 7.838 8.771 9.729 11.339 13.027 14.994 14.956 14.997 14.988 14.974 14.947 32.763 23.054 14.96 13.161 10.806 3.202 3.229 3.275 3.303 3.348 3.4 3.452 3.497 3.55 3.6 3.655 3.286 3.037 2.821 2.721 2.636 2.514 2.397 2.293 2.208 2.126 2.054 1.983 1.913 1.859 1.806 1.753 1.709 1.657 1.623 1.578 1.543 1.507 1.471 1.443 1.416 1.386 1.36 1.331 1.312 1.285 1.267 1.249 1.223 1.207 1.219 1.164 1.133 1.13 1.128 1.11 1.092 1.093 1.072 1.062 1.055 1.045 1.031 1.022 1.014 1.005 0.995 0.995 0.986 0.978 0.969 0.97 0.961 0.961 0.952 0.952 0.945 0.946 0.938 0.93 1.51149 6.22243 1.437360 0 0 0 pippo 0
FLASER 181 1.342 1.331 1.321 1.323 1.314 1.305 1.305 1.296 1.287 1.286 1.277 1.281 1.283 1.276 1.27 1.272 1.266 1.271 1.259 1.25 1.263 1.262 1.263 1.273 1.272 1.273 1.272 1.273 1.277 1.286 1.298 1.298 1.308 1.308 1.315 1.324 1.324 1.333 1.342 1.351 1.36 1.371 1.38 1.389 1.407 1.417 1.425 1.444 1.453 1.471 1.489 1.506 1.523 1.541 1.558 1.575 1.602 1.62 1.647 1.665 1.692 1.717 1.751 1.786 1.813 1.848 1.876 1.912 1.951 1.991 2.035 2.08 2.134 2.18 2.242 2.289 2.354 2.42 2.483 2.564 2.641 2.713 2.827 5.234 5.207 5.349 5.314 5.267 5.232 5.195 5.164 5.128 5.109 5.081 5.052 5.311 5.716 6.211 7.292 7.428 8.292 9.333 10.866 12.591 14.488 14.459 14.515 14.498 14.484 14.448 32.763 32.763 14.48 14.083 11.41 9.592 8.269 7.272 2.727 2.76 2.787 2.834 2.87 2.91 2.955 3.008 3.062 3.115 3.162 3.226 3.283 3.141 2.668 2.591 2.49 2.399 2.314 2.23 2.168 2.095 2.032 1.985 1.928 1.872 1.828 1.783 1.74 1.705 1.662 1.627 1.602 1.564 1.53 1.503 1.475 1.458 1.43 1.412 1.383 1.365 1.347 1.328 1.31 1.301 1.282 1.265 1.246 1.237 1.219 1.202 1.193 1.184 1.176 1.159 1.149 1.142 1.132 1.133 1.124 1.108 1.108 1.62196 6.72161 1.284110 0 0 0 pippo 0
FLASER 181 1.179 1.173 1.176 1.178 1.171 1.174 1.175 1.173 1.17 1.167 1.173 1.169 1.176 1.183 1.189 1.188 1.196 1.205 1.212 1.212 1.222 1.23 1.23 1.239 1.248 1.249 1.259 1.268 1.276 1.285 1.296 1.304 1.322 1.332 1.342 1.359 1.369 1.387 1.394 1.413 1.432 1.451 1.472 1.481 1.507 1.525 1.551 1.578 1.596 1.629 1.655 1.681 1.717 1.742 1.776 1.81 1.847 1.892 1.928 1.977 2.026 2.079 2.133 2.187 2.24 2.308 2.384 5 4.789 4.719 4.809 4.852 4.807 4.769 4.734 4.703 4.676 4.649 4.62 4.596 4.57 4.59 4.916 5.3 5.75 6.788 6.823 7.702 8.526 9.778 11.485 13.879 13.989 14.019 14.011 14.002 13.996 32.763 22.102 13.963 13.991 12.177 10.485 9.014 7.929 7.083 6.404 5.827 5.364 2.251 2.276 2.314 2.35 2.387 2.43 2.467 2.52 2.571 2.625 2.676 2.729 2.791 2.855 2.953 2.437 2.355 2.26 2.21 2.152 2.089 2.036 1.986 1.928 1.884 1.847 1.802 1.768 1.725 1.69 1.664 1.63 1.604 1.577 1.55 1.523 1.496 1.478 1.46 1.442 1.422 1.408 1.385 1.358 1.349 1.33 1.321 1.313 1.295 1.285 1.268 1.259 1.249 1.24 1.231 1.223 1.214 1.204 1.196 1.187 1.178 1.17 1.17 1.161 1.164 1.153 1.147 1.147 1.14 1.142 1.138 1.14 1.69222 7.23174 1.514060 0 0 0 pippo 0
FLASER 181 1.136 1.13 1.132 1.123 1.127 1.129 1.13 1.119 1.126 1.122 1.119 1.126 1.132 1.139 1.138 1.145 1.152 1.153 1.159 1.161 1.168 1.168 1.19 1.186 1.197 1.206 1.204 1.215 1.224 1.233 1.242 1.252 1.261 1.279 1.287 1.295 1.304 1.322 1.341 1.35 1.369 1.378 1.397 1.416 1.435 1.462 1.48 1.498 1.525 1.551 1.578 1.604 1.639 1.665 1.699 1.726 1.76 1.802 1.821 1.884 1.93 4.745 3.704 3.781 4.583 4.536 4.311 4.26 4.405 4.369 4.336 4.301 4.262 4.237 4.201 4.173 4.153 4.127 4.101 4.072 4.069 4.353 4.66 5.004 5.325 6.289 6.463 7.218 7.992 9.178 10.786 13.136 13.494 13.506 13.506 13.498 13.483 13.478 23.975 32.767 13.491 13.323 11.374 9.671 8.477 7.535 6.8 6.18 5.673 5.24 4.883 4.574 4.284 4.073 1.945 1.806 1.84 1.866 1.911 1.94 1.985 2.034 2.071 2.122 2.177 2.233 2.289 2.345 2.413 2.512 2.531 8.194 2.061 1.984 1.942 1.895 1.833 1.816 1.772 1.745 1.712 1.686 1.659 1.624 1.597 1.57 1.543 1.525 1.508 1.49 1.462 1.444 1.434 1.416 1.397 1.379 1.369 1.351 1.343 1.324 1.315 1.305 1.296 1.29 1.279 1.27 1.259 1.252 1.242 1.234 1.225 1.235 1.217 1.209 1.209 1.2 1.193 1.185 1.186 1.19 1.184 1.71998 7.72984 1.512540 0 0 0 pippo 0
FLASER 181 1.088 1.082 1.074 1.067 1.069 1.072 1.073 1.072 1.062 1.059 1.064 1.072 1.079 1.077 1.085 1.092 1.09 1.092 1.099 1.1 1.109 1.118 1.117 1.127 1.136 1.137 1.146 1.154 1.163 1.172 1.181 1.19 1.199 1.216 1.226 1.235 1.244 1.261 1.27 1.288 1.306 1.316 1.334 1.354 1.366 1.367 1.389 1.426 1.454 1.473 1.872 1.942 1.94 4.564 4.489 4.422 4.355 3.26 3.257 3.328 4.124 4.071 3.868 3.787 3.777 3.903 3.867 3.83 3.791 3.754 3.725 3.689 3.662 3.636 3.61 3.592 3.566 3.539 3.522 3.693 3.925 4.181 4.482 4.818 5.746 5.775 6.254 6.983 7.839 9.021 10.385 12.656 12.944 12.959 12.951 12.962 12.956 12.91 32.767 32.763 12.945 12.967 11.536 9.928 8.726 7.761 7.005 6.372 5.87 5.427 5.046 4.73 4.442 4.185 3.977 3.765 3.582 3.584 3.611 3.646 3.672 3.7 3.727 3.706 1.318 1.337 1.365 1.412 1.449 1.497 1.535 1.6 1.646 1.699 1.755 1.811 1.888 1.942 2.021 2.145 4.704 4.675 4.846 4.93 1.679 5.089 5.221 1.6 1.583 1.556 1.52 1.504 1.493 1.476 1.455 1.448 1.438 1.421 1.402 1.392 1.374 1.365 1.356 1.346 1.337 1.328 1.319 1.309 1.3 1.291 1.282 1.281 1.274 1.265 1.267 1.259 1.26 1.252 1.244 1.246 1.239 1.75089 8.28282 1.514060 0 0 0 pippo 0
FLASER 181 1.023 1.016 1.019 1.012 1.015 1.009 1.017 1.009 1.008 1.005 1.01 1.016 1.023 1.02 1.027 1.025 1.033 1.045 1.044 1.054 1.053 1.053 1.078 1.075 1.062 1.071 1.091 1.093 1.103 1.111 1.12 1.136 5.771 5.821 2.359 2.25 2.24 5.358 5.202 5.058 4.933 4.839 4.752 4.661 4.565 4.453 4.355 4.271 4.186 4.102 4.026 2.954 2.882 2.781 2.754 2.802 3.672 3.604 3.348 3.284 3.302 3.386 3.348 3.304 3.267 3.231 3.195 3.168 2.549 2.391 2.394 2.389 2.745 2.772 3.028 3.001 2.666 2.609 2.606 3.514 3.73 3.996 4.269 5.094 5.245 5.416 5.965 6.678 7.346 8.708 9.9 12.109 12.403 12.406 12.407 12.397 12.391 12.389 32.767 32.767 12.423 12.433 12.088 10.372 9.053 8.069 7.289 6.625 6.088 5.637 5.247 4.911 4.614 4.352 4.121 3.908 3.717 3.549 3.428 3.324 3.188 3.093 3.121 3.149 3.168 3.205 3.243 3.27 3.246 3.4 3.445 3.489 3.533 3.577 3.63 3.685 3.742 3.801 3.865 3.928 3.877 5.505 6.154 8.568 0.862 0.914 0.982 1.068 1.16 1.271 1.418 1.571 1.811 4.814 4.746 4.752 4.869 5.031 5.146 5.324 5.508 5.725 5.966 1.406 6.722 6.675 1.378 1.367 1.368 1.349 1.349 1.322 1.326 1.314 1.324 1.314 1.314 1.306 1.3 1.294 1.298 1.7816 8.83466 1.514060 0 0 0 pippo 0
FLASER 181 0.965 0.965 0.978 1.376 1.894 1.899 1.904 1.868 1.907 1.946 1.951 1.955 1.944 1.952 1.954 1.958 9.575 9.601 9.639 9.682 9.718 2.088 2.042 2.004 5.444 5.481 5.508 5.544 5.594 5.623 5.402 5.204 5.02 4.851 4.709 4.57 4.451 4.34 4.236 4.122 4.01 3.908 3.811 2.555 2.486 2.376 2.338 2.334 3.374 3.305 3.246 3.127 2.908 2.841 2.844 2.925 2.919 2.887 2.852 2.807 2.774 2.736 1.937 1.924 1.914 1.889 2.22 2.234 2.25 2.429 2.502 2.484 2.147 2.117 2.08 2.15 2.926 3.066 3.218 3.4 3.614 4.26 4.615 4.692 4.825 5.28 5.829 6.368 7.444 9.145 9.917 11.871 11.855 11.892 11.876 11.88 11.887 11.875 32.763 32.763 11.896 11.891 11.754 10.225 9.107 8.149 7.379 6.745 6.207 5.741 5.366 5.022 4.728 4.47 4.23 4.026 3.841 3.679 3.536 3.428 3.298 3.169 3.056 2.947 2.852 2.76 2.665 2.644 2.67 2.704 2.74 2.774 2.811 2.847 2.865 2.986 3.038 3.083 3.138 3.184 3.242 3.298 3.365 3.429 3.495 3.568 3.569 3.587 5.56 5.962 4.662 4.164 4.061 4.16 4.305 4.413 4.539 4.667 4.62 4.578 4.535 4.569 4.7 4.886 5.092 5.325 5.587 5.879 6.183 1.613 1.507 1.376 1.261 1.171 1.103 1.038 0.986 0.938 0.892 0.854 0.797 1.81082 9.38804 1.519410 0 0 0 pippo 0
FLASER 181 1.181 1.163 1.147 1.138 1.119 1.102 1.092 1.081 1.064 1.025 1.031 1.02 1.02 1.022 1.013 1.004 0.994 0.995 0.986 0.988 1.066 1.095 1.162 1.231 1.318 1.416 1.537 1.674 1.906 1.882 1.882 1.873 1.861 1.87 1.898 1.908 1.905 1.899 1.914 1.902 1.91 1.907 1.901 1.893 1.915 1.92 1.939 1.968 1.935 1.944 9.58 9.608 9.644 5.356 5.324 5.349 5.374 5.409 5.445 5.484 5.331 5.095 4.903 4.715 4.553 4.397 4.259 4.153 4.05 3.941 3.817 2.504 2.319 2.198 2.153 2.148 3.27 3.206 3.142 3.076 3.01 2.736 2.664 2.637 2.642 2.747 2.701 2.656 2.621 2.594 2.563 1.739 1.698 1.68 1.662 1.712 1.982 1.994 1.999 2.004 2.27 2.252 1.91 1.881 1.853 1.825 1.878 2.6 2.74 2.867 2.998 3.133 3.315 3.47 4.208 4.438 4.427 4.739 5.179 5.753 6.342 7.264 8.884 9.783 11.614 11.59 11.642 11.628 11.626 11.64 11.63 26.059 32.767 11.675 11.628 11.658 10.684 9.163 8.228 7.46 6.827 6.285 5.838 5.444 5.104 4.807 4.545 4.307 4.105 3.907 3.735 3.592 3.468 3.352 3.244 3.124 3.023 2.921 2.825 2.734 2.657 2.586 2.515 2.436 2.458 2.484 2.52 2.556 2.601 2.635 2.679 2.675 2.836 2.889 2.938 2.993 3.048 3.111 3.179 3.247 3.313 1.82657 9.654 0.9069930 0 0 0 pippo 0
FLASER 181 1.822 1.778 1.726 1.682 1.638 1.593 1.566 1.53 1.493 1.456 1.427 1.399 1.372 1.353 1.324 1.306 1.279 1.261 1.242 1.225 1.197 1.18 1.163 1.145 1.136 1.119 1.102 1.094 1.083 1.073 1.057 1.012 1.025 1.016 1.016 1.008 0.998 0.998 0.99 0.98 0.971 1.023 1.09 1.151 1.205 1.279 1.353 1.466 1.585 1.741 1.884 1.879 1.878 1.865 1.883 2.033 1.905 1.898 1.903 1.89 1.89 1.903 1.908 1.905 1.902 1.917 1.922 1.91 1.958 1.919 1.951 1.939 9.599 9.635 5.48 5.314 5.341 5.367 5.402 5.428 5.467 5.397 5.177 4.972 4.784 4.614 4.459 4.312 4.202 4.088 3.974 3.847 3.74 2.34 2.242 2.181 2.183 2.535 3.237 3.157 3.11 3.048 2.786 2.686 2.629 2.632 2.731 2.724 2.699 2.659 2.625 2.583 1.834 1.719 1.713 1.688 1.649 1.995 1.997 2.001 2.021 2.283 2.264 2.246 1.899 1.878 1.84 1.851 2.573 2.702 2.829 2.96 3.092 3.265 3.484 4.138 4.434 4.437 4.648 5.087 5.605 6.097 7.168 8.867 9.652 11.466 11.602 11.639 11.622 11.627 11.629 11.654 32.763 19.569 21.068 11.64 11.659 10.692 9.412 8.395 7.601 6.936 6.391 5.91 5.515 5.175 4.867 4.601 4.36 4.142 3.955 3.77 3.627 3.5 3.385 3.26 3.142 3.039 2.929 2.835 2.754 1.82589 9.65318 0.5344460 0 0 0 pippo 0
FLASER 181 1.095 1.054 1.014 0.977 0.942 0.915 0.909 0.816 0.798 0.765 0.761 0.758 0.74 0.722 0.713 0.694 0.687 0.696 0.705 0.723 0.732 0.741 0.759 0.773 0.791 0.809 0.826 0.843 0.86 0.886 0.918 0.936 0.962 0.999 1.026 1.057 1.087 1.133 1.168 1.213 1.258 1.313 1.361 1.418 1.475 1.479 1.477 1.464 1.463 1.479 1.469 1.51 2.254 2.479 2.712 2.969 1.43 1.437 1.447 1.437 1.42 1.437 1.435 1.433 1.412 1.421 1.439 1.436 1.433 1.429 1.387 1.41 1.432 8.966 8.987 9.013 9.039 9.075 9.11 4.981 4.788 4.807 4.834 4.862 4.887 4.913 4.952 4.815 4.611 4.423 4.271 4.129 4.002 3.89 3.766 3.645 3.529 3.429 3.338 3.253 3.158 1.88 1.809 1.747 1.681 1.655 1.656 1.817 2.673 2.619 2.581 2.538 2.396 2.219 2.186 2.156 2.164 2.239 2.296 2.26 2.237 2.218 2.2 2.184 2.157 2.13 2.099 2.079 2.053 2.016 1.297 1.319 1.306 1.299 1.284 1.238 1.607 1.628 1.868 1.868 1.861 1.853 1.546 1.538 1.519 1.496 1.485 1.549 4.143 4.143 4.811 5.87 7.143 10.695 11.372 11.382 11.41 11.413 11.422 11.431 19.473 32.763 21.99 11.453 11.496 11.163 10.911 9.201 8.494 7.887 7.354 6.873 6.475 6.1 5.788 5.5 5.242 5.012 4.807 4.613 4.445 2.31207 9.8796 0.4402580 0 0 0 pippo 0
FLASER 181 0.8 0.802 0.809 0.811 0.825 0.824 0.834 0.843 0.852 0.86 0.875 0.892 0.906 0.923 0.94 0.958 0.967 0.985 1.003 1.013 1.031 1.061 1.071 1.092 1.121 1.139 1.166 1.181 1.169 1.161 1.139 1.125 1.146 1.152 1.146 1.134 1.179 1.377 1.588 1.641 1.699 1.771 1.834 1.918 2.001 2.099 2.207 2.329 2.457 2.603 2.752 2.949 3.089 4.054 4.037 0.976 0.969 4.191 0.956 0.981 0.953 0.922 0.918 0.922 0.959 8.42 8.431 8.43 8.43 8.43 8.449 8.467 8.483 8.492 8.52 8.539 8.566 8.603 4.526 4.284 4.301 4.328 4.355 4.371 4.39 4.415 4.442 4.317 4.134 3.972 3.844 3.726 3.604 3.472 3.352 3.248 3.153 3.061 2.971 2.895 2.822 2.749 2.681 2.611 2.559 1.631 1.356 1.331 1.359 1.236 1.216 1.216 1.204 1.205 1.198 1.761 2.088 2.061 2.033 1.811 1.775 1.743 1.707 1.707 1.718 1.807 1.867 1.842 1.843 1.816 1.8 1.779 1.767 1.755 1.736 1.726 1.703 1.69 1.698 1.672 1.637 1.645 1.508 1.439 1.371 1.357 1.313 1.264 1.064 0.944 0.961 0.933 0.927 0.932 0.941 0.947 0.962 0.961 11.216 1.36 1.303 1.296 1.293 1.294 1.304 1.278 1.311 11.378 11.049 10.741 9.398 8.767 8.247 7.782 7.374 6.994 6.668 6.36 6.092 5.839 5.613 2.77599 10.0966 0.4359630 0 0 0 pippo 0
FLASER 181 1.042 1.048 0.96 0.955 0.976 0.944 0.931 0.944 0.933 0.951 0.967 0.991 1.02 1.046 1.22 1.238 1.255 1.274 1.292 1.313 1.331 1.359 1.378 1.397 1.434 1.461 1.49 1.524 1.555 1.583 0.65 0.539 0.518 0.515 0.504 0.504 0.499 0.527 0.535 0.531 0.545 0.57 0.593 0.65 2.609 2.701 3.927 3.899 3.872 3.648 3.631 3.7 3.795 3.794 3.767 4.012 8.528 8.038 8.02 8.004 7.987 7.976 7.97 7.961 7.952 7.952 7.952 7.951 7.961 7.969 7.978 7.987 7.993 8.011 8.028 8.053 8.08 3.985 3.785 3.795 3.812 3.832 3.843 3.862 3.89 3.907 3.936 3.772 3.627 3.505 3.385 3.254 3.138 3.027 2.914 2.832 2.741 2.655 2.586 2.513 2.45 2.386 2.33 2.273 2.226 2.182 2.136 2.082 2.047 2.007 1.971 1.931 1.903 1.859 0.923 0.914 0.875 0.865 0.852 0.855 0.803 0.861 0.751 0.782 0.767 0.773 0.758 0.75 0.746 0.739 0.724 0.705 0.696 1.155 1.256 1.252 1.195 1.255 1.36 1.232 1.202 1.184 1.254 1.21 1.114 1.128 1.152 1.06 0.995 0.678 0.748 0.937 1.087 1.121 1.106 1.298 1.342 1.315 1.341 1.358 1.367 1.377 1.386 1.393 1.403 1.387 1.396 1.425 1.434 1.444 1.308 1.139 1.116 1.119 1.113 1.124 1.159 1.204 7.443 7.136 6.865 3.25445 10.3202 0.435960 0 0 0 pippo 0
FLASER 181 0.96 0.987 1.023 0.613 0.421 0.413 0.413 0.421 0.414 0.405 0.403 0.401 0.411 0.42 0.421 0.421 0.421 0.43 0.43 0.439 0.452 0.453 0.453 0.462 0.775 1.318 1.344 1.362 1.381 1.4 1.428 1.447 1.466 1.483 1.511 1.53 1.556 1.591 1.619 1.645 1.681 1.716 1.76 1.795 1.829 1.873 1.927 1.976 2.024 2.086 2.148 2.21 2.276 2.351 2.427 2.605 3.691 3.656 3.629 3.602 3.362 3.345 3.343 3.5 3.491 3.473 3.455 3.665 8.267 8.236 8.216 7.7 7.683 7.664 7.644 7.635 7.616 7.608 7.598 7.59 7.59 7.58 7.581 7.591 7.591 7.599 7.6 7.618 7.636 7.646 7.674 3.663 3.393 3.402 3.42 3.429 3.446 3.463 3.482 3.498 3.516 3.534 3.422 3.292 3.206 3.074 2.943 2.827 2.736 2.633 2.555 2.474 2.392 2.327 2.271 2.206 2.152 2.098 2.053 2.005 1.959 1.912 1.875 1.839 1.795 1.77 1.736 1.699 1.674 1.648 1.622 1.603 1.576 1.549 1.541 1.513 1.497 1.478 1.459 1.45 1.423 1.404 1.395 1.394 1.368 0.851 0.534 0.534 0.525 0.525 0.507 0.507 0.507 0.498 0.497 0.497 0.49 0.507 0.509 0.502 0.515 0.504 0.496 0.533 0.48 0.464 0.455 0.466 0.463 0.476 0.493 0.516 0.511 0.44 0.45 0.448 0.449 0.441 0.449 0.564 1.145 3.60662 10.4831 0.15340 0 0 0 pippo 0
FLASER 181 1.189 1.188 1.197 1.197 1.205 1.205 1.214 1.222 1.222 1.229 1.237 1.246 1.254 1.263 1.272 1.28 1.289 1.298 1.307 1.326 1.335 1.345 1.354 1.373 1.383 1.404 1.42 1.439 1.459 1.477 1.496 1.514 1.542 1.558 1.587 1.613 1.64 1.666 1.692 1.727 1.762 1.789 1.833 1.867 1.912 1.95 2 2.026 3.373 3.337 3.3 3.273 3.234 3.196 3.168 3.132 2.892 2.865 2.869 3.015 3.016 2.996 2.971 2.951 3.105 32.767 9.336 7.772 7.743 7.719 7.682 7.174 7.15 7.132 7.114 7.098 7.088 7.072 7.064 7.058 7.053 7.038 7.053 7.048 7.049 7.057 7.057 7.07 7.079 7.084 7.101 7.118 3.119 2.912 2.849 2.859 2.868 2.876 2.896 2.903 2.922 2.943 2.962 2.979 2.997 2.995 2.87 2.756 2.65 2.563 2.474 2.394 2.318 2.252 2.188 2.126 2.072 2.017 1.969 1.929 1.875 1.839 1.796 1.76 1.727 1.693 1.657 1.631 1.596 1.568 1.55 1.524 1.505 1.477 1.459 1.439 1.42 1.402 1.383 1.367 1.357 1.338 1.33 1.311 1.301 1.294 1.275 1.265 1.257 1.248 1.239 1.23 1.222 1.213 1.205 1.196 1.187 1.178 1.178 1.171 1.171 1.161 1.163 1.153 1.154 1.154 1.147 1.139 1.147 1.139 1.139 1.141 1.141 1.141 1.141 1.141 1.141 1.139 1.146 1.146 1.146 4.16783 10.5623 0.1416390 0 0 0 pippo 0
FLASER 181 1.24 1.241 1.243 1.233 1.235 1.234 1.241 1.241 1.24 1.239 1.246 1.245 1.254 1.259 1.259 1.26 1.268 1.277 1.278 1.286 1.295 1.305 1.314 1.314 1.323 1.333 1.343 1.351 1.361 1.371 1.39 1.399 1.408 1.427 1.446 1.455 1.474 1.493 1.509 1.527 1.547 1.563 1.581 1.608 1.626 1.657 1.662 1.923 3.253 3.197 3.15 3.095 3.042 2.997 2.961 2.913 2.877 2.84 2.794 2.768 2.495 2.467 2.44 2.441 2.53 2.589 2.569 2.544 2.524 2.506 2.588 2.701 32.767 7.152 32.767 32.763 8.862 7.292 7.255 7.222 7.182 6.723 6.706 6.672 6.66 6.656 6.646 6.629 6.619 6.624 6.609 6.605 6.594 6.609 6.61 6.601 6.611 6.614 6.606 6.604 6.604 6.612 6.635 6.649 2.597 2.414 2.333 2.343 2.354 2.362 2.381 2.391 2.401 2.418 2.427 2.446 2.464 2.481 2.5 2.524 2.449 2.367 2.291 2.217 2.154 2.084 2.029 1.972 1.924 1.878 1.834 1.79 1.755 1.71 1.676 1.649 1.615 1.578 1.551 1.526 1.499 1.478 1.452 1.434 1.414 1.386 1.367 1.348 1.339 1.322 1.305 1.286 1.276 1.259 1.25 1.232 1.224 1.214 1.197 1.198 1.18 1.171 1.164 1.153 1.155 1.146 1.137 1.128 1.128 1.111 1.111 1.108 1.108 1.099 1.101 1.092 1.092 1.093 1.084 1.086 1.087 4.67826 10.6242 -0.05862670 0 0 0 pippo 0
FLASER 181 1.215 1.206 1.207 1.208 1.217 1.216 1.215 1.213 1.205 1.212 1.219 1.225 1.226 1.234 1.243 1.242 1.252 1.251 1.26 1.269 1.278 1.278 1.286 1.295 1.306 1.315 1.324 1.334 1.344 1.355 1.354 1.363 1.49 3.562 3.464 3.363 3.269 3.185 3.103 3.022 2.959 2.884 2.83 2.766 2.714 2.663 2.611 2.565 2.52 2.476 2.439 2.403 2.33 2.069 2.042 2.015 2.009 2.084 2.137 2.155 2.118 2.1 2.082 2.055 2.086 2.167 2.24 2.305 32.767 32.767 32.763 6.692 32.767 7.096 8.41 6.826 6.795 6.761 6.728 6.28 6.269 6.237 6.22 6.201 6.182 6.162 6.149 6.128 6.121 6.112 6.108 6.102 6.091 6.091 6.09 6.1 6.111 6.107 6.121 6.133 6.158 6.165 6.187 6.211 6.232 6.257 6.275 2.075 1.942 1.861 1.87 1.879 1.889 1.897 1.915 1.936 1.946 1.953 1.971 1.991 2.01 2.02 2.046 2.068 2.086 2.087 2.04 1.983 1.936 1.888 1.843 1.799 1.764 1.721 1.695 1.66 1.633 1.598 1.571 1.545 1.517 1.491 1.472 1.453 1.425 1.405 1.387 1.378 1.351 1.333 1.323 1.306 1.286 1.278 1.27 1.26 1.243 1.233 1.225 1.215 1.199 1.19 1.181 1.172 1.174 1.165 1.157 1.156 1.148 1.139 1.138 1.13 1.131 1.122 1.123 1.114 1.115 1.112 1.113 1.107 1.107 5.18028 10.5981 -0.04925470 0 0 0 pippo 0
FLASER 181 1.187 1.192 1.187 1.19 1.19 1.19 1.179 1.188 1.168 1.17 1.193 3.576 3.594 3.612 3.629 3.656 3.673 3.701 3.728 3.758 3.768 3.788 3.808 3.62 3.455 3.301 3.245 3.138 3.005 2.894 2.787 2.69 2.611 2.533 2.452 2.388 2.323 2.266 2.211 2.158 2.103 2.051 1.694 1.659 1.632 1.6 1.617 1.661 1.696 1.722 1.725 1.699 1.679 1.652 1.634 1.607 1.64 1.676 1.711 1.763 1.818 32.763 32.763 6.481 6.414 6.359 32.767 32.767 32.767 32.763 32.767 32.767 7.954 7.931 6.315 6.292 6.248 6.227 5.752 5.732 5.704 5.687 5.667 5.654 5.635 5.616 5.605 5.597 5.586 5.579 5.568 5.56 5.559 5.559 5.56 5.559 5.569 5.579 5.578 5.588 5.608 5.63 5.637 5.656 5.678 5.695 5.724 5.741 5.769 5.799 5.834 5.862 1.622 1.55 1.478 1.411 1.381 1.391 1.401 1.409 1.419 1.438 1.455 1.465 1.486 1.495 1.514 1.531 1.549 1.567 1.585 1.611 1.628 1.657 1.681 1.691 1.669 1.633 1.606 1.571 1.554 1.527 1.5 1.481 1.463 1.435 1.415 1.397 1.379 1.369 1.35 1.334 1.323 1.306 1.296 1.278 1.269 1.26 1.251 1.244 1.227 1.227 1.209 1.201 1.191 1.191 1.182 1.174 1.165 1.166 1.157 1.157 1.149 1.15 1.15 1.141 1.142 1.135 1.135 1.128 1.13 5.70901 10.5717 -0.04644750 0 0 0 pippo 0
FLASER 181 3.482 3.486 3.493 3.502 3.518 3.526 3.534 3.551 3.568 3.584 3.593 3.61 3.628 3.615 3.641 3.658 3.396 3.148 2.954 2.775 2.617 2.483 2.361 2.27 2.199 2.102 2.005 1.455 1.394 1.336 1.313 1.316 1.334 1.354 1.363 1.381 1.393 1.389 1.351 1.322 1.295 1.275 1.241 1.251 1.279 1.295 1.315 1.333 1.36 1.388 1.425 1.459 9.778 9.987 10.206 10.428 10.665 32.767 32.767 32.763 6.087 6.038 5.993 5.93 32.763 32.767 32.763 32.763 32.767 32.767 32.767 6.181 5.871 5.841 5.799 5.763 5.736 5.272 5.245 5.227 5.199 5.182 5.163 5.154 5.136 5.126 5.117 5.099 5.099 5.09 5.08 5.071 5.071 5.08 5.071 5.071 5.08 5.088 5.088 5.097 5.108 5.126 5.135 5.153 5.172 5.191 5.209 5.236 5.254 5.29 5.308 5.335 5.378 5.406 5.441 5.477 5.523 5.569 5.616 5.664 1.204 1.176 1.139 1.103 1.072 1.032 1.013 0.985 0.961 0.957 0.965 0.982 1 1.01 1.026 1.048 1.064 1.084 1.105 1.123 1.141 1.169 1.178 1.213 1.239 1.267 1.293 1.331 1.36 1.392 1.381 1.362 1.353 1.334 1.324 1.306 1.297 1.28 1.28 1.264 1.253 1.246 1.237 1.228 1.227 1.21 1.21 1.202 1.193 1.184 1.185 1.176 1.176 1.177 1.168 1.16 1.16 1.163 1.162 1.154 1.156 6.20291 10.5475 -0.04774440 0 0 0 pippo 0
FLASER 181 3.51 3.516 3.523 3.531 3.546 3.569 3.537 1.163 1.134 1.123 1.125 1.15 1.156 1.157 1.157 1.165 1.166 1.156 1.089 1.02 0.964 0.974 0.983 0.992 0.993 0.993 1.005 1.021 1.023 1.032 1.043 1.052 1.071 1.079 1.09 1.095 11.578 8.207 7.995 7.841 7.667 7.589 7.677 9.683 9.474 9.363 9.5 9.666 32.767 32.767 9.409 9.502 9.692 9.898 10.083 32.767 32.767 32.763 5.681 5.591 5.548 5.488 32.763 32.763 32.767 32.763 5.278 32.767 32.767 32.763 5.708 5.372 5.358 5.325 5.285 5.267 4.789 4.761 4.733 4.714 4.696 4.677 4.668 4.649 4.631 4.622 4.615 4.606 4.589 4.588 4.589 4.579 4.58 4.571 4.571 4.579 4.58 4.579 4.588 4.597 4.606 4.615 4.63 4.64 4.658 4.677 4.696 4.714 4.733 4.753 4.781 4.808 4.826 4.861 4.896 4.923 4.96 4.996 5.035 5.09 5.129 5.166 5.221 5.275 5.329 5.382 5.444 5.517 5.582 5.649 5.732 5.817 5.88 5.956 6.039 6.108 6.212 6.302 0.795 0.793 0.784 0.762 0.753 0.743 0.733 0.725 0.714 0.708 0.698 0.68 0.68 0.67 0.661 0.653 0.652 0.63 0.63 0.628 0.647 0.656 0.692 0.719 0.746 0.785 0.829 0.865 0.923 0.976 1.045 1.121 1.194 1.205 1.205 1.196 1.197 1.189 1.189 1.19 1.184 1.176 1.186 6.71075 10.5212 -0.05593240 0 0 0 pippo 0
FLASER 181 0.897 0.895 0.896 0.896 0.897 0.896 0.896 0.898 0.898 0.883 32.763 32.763 32.763 32.767 21.648 21.534 27.12 26.578 16.702 9.264 22.414 9.122 9.171 9.204 9.255 9.341 9.37 9.44 9.452 14.856 14.346 13.852 13.406 2.26 2.236 2.245 2.262 2.37 2.28 2.271 2.271 2.314 2.329 2.343 2.236 2.307 2.383 32.767 9.118 9.042 9.194 9.36 9.564 9.742 9.945 10.161 10.371 32.767 32.767 5.682 32.767 32.767 32.767 32.767 6.611 13.862 32.763 32.763 5.241 7.121 7.055 7.006 6.173 6.911 6.874 4.298 4.281 4.254 4.235 4.218 4.201 4.182 4.163 4.153 4.135 4.125 4.115 4.107 4.098 4.088 4.089 4.08 4.079 4.08 4.07 4.079 4.079 4.079 4.088 4.098 4.098 4.107 4.115 4.124 4.143 4.153 4.182 4.19 4.201 4.229 4.247 4.264 4.293 4.319 4.347 4.372 4.398 4.432 4.467 4.51 4.546 4.588 4.622 4.678 4.715 4.772 4.817 4.868 4.931 4.987 5.054 5.13 5.197 5.268 5.347 5.438 5.532 5.615 5.695 5.778 5.878 5.948 6.057 6.189 6.31 6.446 6.595 6.761 6.911 7.092 7.278 7.472 7.682 7.913 8.16 8.409 8.685 8.988 9.308 9.661 10.288 10.588 11.051 11.423 12.007 12.724 13.449 13.99 14.839 15.803 16.902 32.767 17.532 17.386 17.324 17.275 0.583 0.59 0.594 0.586 0.586 7.23387 10.4926 -0.064310 0 0 0 pippo 0
FLASER 181 10.57 19.842 19.822 19.819 28.282 28.31 32.763 26.802 26.822 32.763 32.763 26.97 21.392 21.453 9.423 9.137 9.181 9.221 9.252 9.306 9.363 9.422 9.465 9.524 15.827 15.148 14.558 13.994 13.491 13.028 7.675 7.428 7.257 7.118 6.979 7.037 9.436 9.168 8.92 8.677 8.738 8.848 10.373 10.163 32.763 8.639 8.746 8.895 32.767 32.767 32.763 32.763 32.763 4.678 4.64 32.763 32.767 32.767 32.763 32.763 4.397 32.767 32.763 32.763 32.767 4.764 4.459 4.422 4.378 4.358 4.328 3.82 3.793 3.768 3.748 3.721 3.703 3.694 3.677 3.66 3.641 3.626 3.617 3.608 3.598 3.591 3.582 3.573 3.563 3.564 3.554 3.547 3.554 3.555 3.555 3.555 3.555 3.564 3.563 3.572 3.581 3.589 3.606 3.616 3.625 3.642 3.66 3.678 3.687 3.705 3.732 3.75 3.777 3.804 3.823 3.851 3.883 3.918 3.945 3.981 4.017 4.054 4.091 4.127 4.174 4.221 4.266 4.312 4.365 4.427 4.487 4.556 4.615 4.689 4.752 4.83 4.911 4.994 5.081 5.178 5.283 5.388 5.479 5.574 5.681 5.786 5.916 6.062 6.224 6.391 6.553 6.754 6.953 7.157 7.399 7.656 7.916 8.201 8.513 8.862 9.224 10.136 10.215 10.738 11.123 11.725 12.59 13.345 14.034 15.064 16.219 32.763 12.744 12.675 12.742 12.944 32.763 25.276 32.248 32.572 32.566 7.7493 10.4633 -0.05929170 0 0 0 pippo 0
FLASER 181 19.824 19.815 28.217 28.219 28.228 26.725 26.738 32.763 26.819 32.763 21.833 9.033 9.03 9.056 9.1 9.127 9.174 9.207 9.256 9.295 9.333 16.435 15.655 14.927 14.29 13.674 7.501 7.245 6.988 6.775 6.694 6.713 32.767 9.175 8.898 8.624 8.369 8.413 8.509 8.614 32.767 32.767 8.323 32.767 32.767 32.767 32.763 4.421 32.763 4.276 4.227 32.763 32.763 32.767 32.763 32.763 3.967 32.763 32.763 32.763 32.763 4.33 32.767 3.988 3.955 3.923 3.883 3.832 3.321 3.303 3.284 3.256 3.237 3.218 3.199 3.18 3.171 3.153 3.135 3.127 3.117 3.1 3.091 3.083 3.073 3.065 3.056 3.046 3.047 3.037 3.037 3.038 3.037 3.038 3.038 3.038 3.038 3.046 3.045 3.056 3.063 3.072 3.083 3.09 3.1 3.109 3.128 3.137 3.154 3.174 3.183 3.201 3.221 3.249 3.276 3.295 3.322 3.351 3.377 3.406 3.432 3.468 3.504 3.531 3.575 3.61 3.653 3.697 3.742 3.797 3.841 3.901 3.953 4.016 4.072 4.137 4.213 4.285 4.357 4.434 4.522 4.611 4.711 4.808 4.918 5.036 5.15 5.257 5.354 5.485 5.632 5.794 5.962 6.152 6.355 6.571 6.791 7.051 7.325 7.639 7.953 8.305 8.699 9.133 9.949 10.325 10.904 11.433 12.411 13.239 14.111 15.31 16.778 17.369 17.288 17.238 17.21 17.185 25.261 32.157 23.572 8.27226 10.4338 -0.05667930 0 0 0 pippo 0
FLASER 181 6.677 6.592 6.627 32.767 9.216 8.892 8.613 8.333 8.265 8.353 8.444 32.767 32.767 8.27 32.767 32.767 32.763 32.763 32.763 32.763 4.079 4.121 32.767 32.767 32.767 32.763 3.786 32.763 32.763 3.962 32.763 4.121 4.119 3.82 3.777 3.741 3.71 3.677 3.612 3.109 3.084 3.057 3.039 3.014 2.995 2.977 2.957 2.947 2.935 2.917 2.908 2.889 2.88 2.87 2.861 2.852 2.845 2.826 2.826 2.815 2.817 2.806 2.808 2.806 2.8 2.799 2.799 2.8 2.808 2.809 2.808 2.817 2.824 2.833 2.833 2.843 2.86 2.87 2.88 2.891 2.898 2.908 2.926 2.945 2.968 2.984 3.003 3.028 3.047 3.082 3.099 3.126 3.154 3.182 3.21 3.247 3.276 3.313 3.341 3.387 3.431 3.476 3.52 3.573 3.617 3.678 3.722 3.787 3.853 3.919 3.991 4.064 4.137 4.221 4.294 4.384 4.482 4.588 4.692 4.811 4.932 5.051 5.175 5.283 5.427 5.578 5.75 5.932 6.142 6.365 6.589 6.869 7.159 7.485 7.819 8.192 8.611 9.071 9.847 10.367 10.853 11.622 13.07 13.473 14.674 16.125 17.207 17.256 17.22 17.182 17.144 32.763 32.139 32.539 32.638 25.191 24.875 24.901 22.633 17.01 13.451 11.179 9.798 8.414 8.214 6.751 6.149 5.627 5.52 5.015 4.776 4.482 4.083 3.847 3.632 3.569 3.464 3.314 3.177 3.057 2.942 8.50791 10.4402 0.4411590 0 0 0 pippo 0
FLASER 181 32.763 32.763 32.763 32.763 32.763 3.932 32.763 4.063 4.123 3.795 3.764 3.715 3.688 3.654 3.577 3.09 3.055 3.028 3.01 2.983 2.964 2.946 2.936 2.917 2.899 2.882 2.864 2.856 2.838 2.829 2.81 2.801 2.793 2.786 2.776 2.776 2.767 2.758 2.759 2.751 2.749 2.751 2.751 2.75 2.76 2.759 2.759 2.758 2.773 2.773 2.782 2.782 2.799 2.807 2.808 2.826 2.835 2.853 2.863 2.881 2.898 2.908 2.936 2.946 2.976 2.994 3.019 3.037 3.064 3.1 3.118 3.154 3.182 3.219 3.256 3.293 3.322 3.369 3.405 3.45 3.504 3.548 3.601 3.661 3.715 3.769 3.834 3.909 3.981 4.053 4.137 4.222 4.304 4.403 4.49 4.601 4.708 4.829 4.95 5.059 5.158 5.307 5.464 5.641 5.821 6.017 6.232 6.467 6.727 7.018 7.319 7.652 8.009 8.435 8.887 9.817 10.134 10.774 11.349 12.455 13.172 14.348 15.745 16.733 17.217 17.181 17.131 17.105 16.48 32.11 32.504 32.598 25.161 24.834 24.855 24.332 17.966 14.513 12.118 10.238 8.861 8.185 7.287 6.464 5.939 5.568 5.442 4.979 4.688 4.426 4.055 3.826 3.63 3.542 3.465 3.327 3.19 3.067 2.964 2.87 2.707 2.689 2.599 2.523 2.455 2.39 2.218 2.165 2.111 2.065 2.019 1.98 1.935 1.886 1.852 1.816 1.788 1.747 1.719 1.694 1.667 8.56257 10.4817 0.8605740 0 0 0 pippo 0
FLASER 181 2.937 2.918 2.902 2.882 2.864 2.847 2.836 2.819 2.807 2.789 2.789 2.773 2.764 2.764 2.755 2.748 2.737 2.736 2.731 2.729 2.729 2.728 2.731 2.731 2.732 2.732 2.733 2.733 2.74 2.75 2.758 2.758 2.767 2.777 2.786 2.801 2.811 2.82 2.838 2.857 2.876 2.882 2.9 2.921 2.946 2.967 2.995 3.012 3.037 3.073 3.1 3.135 3.163 3.191 3.23 3.265 3.304 3.341 3.377 3.424 3.477 3.53 3.574 3.634 3.687 3.749 3.814 3.892 3.953 4.036 4.109 4.193 4.277 4.376 4.467 4.587 4.702 4.817 4.926 5.046 5.156 5.286 5.44 5.615 5.803 6.009 6.224 6.459 6.719 7.01 7.327 7.659 8.019 8.453 8.905 9.737 10.176 10.731 11.399 12.54 13.275 14.505 15.955 32.767 19.944 22.874 24.909 24.862 16.399 32.045 32.431 32.55 25.08 24.792 24.816 22.573 17.717 14.417 11.866 10.18 8.766 8.139 7.256 6.464 5.948 5.488 5.408 4.956 4.737 4.473 4.07 3.855 3.68 3.544 3.493 3.362 3.225 3.12 3.001 2.895 2.775 2.664 2.641 2.561 2.491 2.42 2.366 2.201 2.147 2.093 2.047 2.009 1.971 1.932 1.887 1.853 1.816 1.789 1.762 1.728 1.702 1.675 1.649 1.63 1.595 1.579 1.56 1.543 1.525 1.507 1.487 1.479 1.46 1.45 1.432 1.415 1.406 1.397 1.387 1.376 1.408 8.59125 10.5298 1.209520 0 0 0 pippo 0
FLASER 181 2.716 2.724 2.715 2.725 2.724 2.723 2.731 2.739 2.746 2.754 2.764 2.773 2.775 2.79 2.799 2.816 2.827 2.844 2.862 2.88 2.896 2.915 2.936 2.957 2.985 3.003 3.03 3.057 3.082 3.111 3.146 3.174 3.211 3.25 3.286 3.324 3.361 3.407 3.451 3.504 3.558 3.61 3.671 3.733 3.787 3.864 3.927 4.009 4.09 4.165 4.257 4.341 4.448 4.546 4.657 4.781 4.896 5 5.114 5.246 5.395 5.565 5.766 5.943 6.163 6.392 6.653 6.945 7.254 7.571 7.924 8.337 8.773 9.688 10.025 10.65 11.223 12.335 13.031 14.184 15.579 16.693 17.102 17.039 17.022 17 16.311 31.984 32.373 32.47 25.048 24.719 24.735 24.362 18.121 14.837 12.838 10.349 9.569 8.146 32.763 6.613 6.074 5.6 5.386 5.108 4.848 4.537 4.308 3.937 3.743 3.56 3.47 3.412 3.271 3.148 3.045 2.933 2.844 2.718 2.618 2.592 2.516 2.461 2.388 2.334 2.191 2.113 2.067 2.028 1.981 1.944 1.905 1.861 1.841 1.798 1.773 1.736 1.719 1.694 1.667 1.639 1.613 1.594 1.579 1.551 1.534 1.523 1.496 1.488 1.47 1.46 1.442 1.423 1.423 1.413 1.393 1.387 1.369 1.368 1.356 1.398 1.473 1.554 1.712 4.019 4.293 4.619 4.763 4.698 8.16 8.142 8.11 8.462 9.854 4.7 4.77 4.797 4.794 4.787 4.768 8.60181 10.5987 1.606850 0 0 0 pippo 0
FLASER 181 2.735 2.735 2.735 2.744 2.75 2.75 2.757 2.766 2.775 2.783 2.792 2.801 2.819 2.828 2.837 2.854 2.873 2.892 2.909 2.919 2.946 2.967 2.985 3.013 3.032 3.068 3.093 3.121 3.148 3.185 3.214 3.252 3.289 3.325 3.372 3.408 3.462 3.507 3.56 3.611 3.672 3.726 3.791 3.856 3.923 4.003 4.075 4.15 4.242 4.334 4.423 4.53 4.651 4.765 4.889 4.995 5.087 5.223 5.362 5.531 5.706 5.898 6.1 6.34 6.601 6.872 7.162 7.495 7.838 8.237 9.184 9.304 9.849 10.295 11.141 12.412 12.693 13.794 15.072 16.246 16.569 16.53 16.496 16.457 16.438 25.291 31.85 31.829 31.942 24.173 24.2 24.212 19.983 15.588 12.841 10.933 9.583 8.907 7.589 7.146 6.579 5.708 5.31 4.93 4.846 4.591 4.325 4.119 3.912 3.727 3.429 3.282 3.148 3.023 2.969 2.954 2.848 2.757 2.669 2.589 2.513 2.452 2.379 2.325 2.228 2.158 2.165 2.113 2.076 2.031 1.988 1.951 1.909 1.872 1.79 1.731 1.705 1.686 1.651 1.624 1.606 1.582 1.563 1.544 1.527 1.508 1.489 1.47 1.461 1.443 1.424 1.412 1.402 1.394 1.376 1.366 1.366 1.357 1.34 1.34 1.33 1.313 1.314 1.304 1.296 1.286 1.284 1.285 1.285 1.268 1.268 1.268 1.27 1.261 1.261 1.261 1.261 1.259 1.259 1.262 1.262 8.57496 11.1394 1.62210 0 0 0 pippo 0
FLASER 181 2.752 2.751 2.761 2.763 2.761 2.769 2.776 2.785 2.784 2.793 2.811 2.82 2.828 2.837 2.857 2.875 2.884 2.901 2.92 2.947 2.968 2.986 3.005 3.033 3.06 3.078 3.112 3.14 3.168 3.206 3.243 3.272 3.309 3.355 3.392 3.437 3.482 3.526 3.579 3.639 3.692 3.746 3.811 3.878 3.95 4.022 4.095 4.179 4.272 4.37 4.46 4.558 4.668 4.787 4.901 5.001 5.132 5.248 5.391 5.56 5.735 5.937 6.149 6.396 6.648 6.921 7.225 7.564 7.901 8.72 8.879 9.372 9.763 10.363 11.291 12.001 12.803 13.905 15.211 32.767 16.054 16.019 15.984 15.964 15.369 24.797 31.353 31.323 31.439 23.68 23.685 23.721 19.578 15.337 12.678 10.916 9.282 8.52 7.382 7.066 6.283 5.615 5.223 4.874 4.602 4.407 4.328 4.055 3.84 3.685 3.522 3.366 3.241 2.988 2.875 2.773 2.678 2.591 2.549 2.492 2.486 2.417 2.353 2.295 2.244 2.188 2.142 2.096 2.05 1.998 1.96 1.92 1.89 1.81 1.778 1.789 1.765 1.738 1.703 1.676 1.659 1.634 1.609 1.592 1.573 1.549 1.531 1.495 1.456 1.425 1.408 1.397 1.387 1.378 1.36 1.351 1.342 1.332 1.324 1.314 1.314 1.305 1.296 1.288 1.287 1.278 1.276 1.268 1.258 1.259 1.259 1.25 1.249 1.25 1.242 1.241 1.241 1.24 1.241 1.241 1.241 8.549 11.6556 1.621440 0 0 0 pippo 0
FLASER 181 2.753 2.753 2.746 2.744 2.744 2.744 2.752 2.751 2.76 2.76 2.768 2.777 2.778 2.786 2.795 2.812 2.82 2.829 2.839 2.856 2.875 2.893 2.913 2.922 2.941 2.962 2.99 3.008 3.026 3.061 3.087 3.115 3.142 3.17 3.207 3.236 3.272 3.311 3.347 3.393 3.43 3.484 3.528 3.58 3.632 3.693 3.756 3.819 3.887 3.958 4.031 4.105 4.189 4.282 4.363 4.462 4.569 4.681 4.797 4.936 5.023 5.145 5.268 5.418 5.591 5.771 5.976 6.193 6.427 6.686 6.959 7.261 7.577 8.236 8.479 8.943 9.283 9.834 10.651 11.46 11.97 12.948 14.07 15.384 17.04 15.259 15.22 15.176 15.159 32.763 30.459 30.838 30.839 30.9 23.175 23.187 23.213 18.793 15.199 12.796 11.305 9.142 8.541 32.763 6.616 6.49 5.696 5.27 4.832 4.536 4.329 4.105 3.931 3.868 3.665 3.422 3.377 3.226 3.107 3.001 2.898 2.798 2.706 2.504 2.431 2.357 2.299 2.242 2.188 2.126 2.106 2.079 2.084 2.043 2.006 1.97 1.92 1.883 1.855 1.82 1.785 1.758 1.723 1.697 1.68 1.653 1.635 1.607 1.593 1.575 1.556 1.532 1.484 1.47 1.464 1.467 1.459 1.443 1.432 1.415 1.407 1.396 1.387 1.38 1.37 1.367 1.359 1.352 1.344 1.341 1.33 1.322 1.299 1.279 1.272 1.254 1.252 1.252 1.252 1.243 1.245 8.54319 12.1677 1.5340 0 0 0 pippo 0
FLASER 181 2.747 2.755 2.755 2.756 2.764 2.763 2.772 2.78 2.787 2.796 2.805 2.814 2.832 2.841 2.859 2.878 2.887 2.904 2.924 2.941 2.962 2.99 3.008 3.035 3.063 3.089 3.116 3.144 3.171 3.199 3.237 3.275 3.313 3.35 3.395 3.432 3.486 3.531 3.592 3.645 3.698 3.761 3.826 3.894 3.956 4.029 4.111 4.195 4.279 4.369 4.468 4.574 4.682 4.807 4.933 5.027 5.165 5.292 5.44 5.609 5.785 5.98 6.201 6.441 6.698 6.979 7.796 7.737 8.108 8.515 8.803 9.292 10.02 11.003 11.171 12.015 12.949 14.127 14.893 15.076 15.038 14.996 14.972 14.939 32.763 29.964 30.335 30.392 30.437 22.67 22.691 22.712 18.746 15.036 12.451 10.815 9.106 8.112 7.541 6.563 6.121 5.93 5.417 5.131 4.554 4.302 4.115 3.895 3.685 3.517 3.424 3.364 3.237 3.104 2.938 2.892 2.801 2.702 2.629 2.55 2.475 2.402 2.357 2.289 2.162 2.073 2.025 1.979 1.952 1.912 1.867 1.831 1.797 1.762 1.737 1.726 1.713 1.767 1.706 1.681 1.658 1.635 1.616 1.597 1.58 1.558 1.535 1.524 1.502 1.489 1.474 1.463 1.449 1.439 1.427 1.424 1.412 1.401 1.388 1.385 1.368 1.366 1.363 1.359 1.355 1.34 1.299 1.29 1.293 1.353 1.321 1.318 1.313 1.321 1.322 1.315 1.315 1.317 1.295 1.335 1.325 8.53689 12.6766 1.619890 0 0 0 pippo 0
FLASER 181 2.774 2.772 2.773 2.782 2.782 2.789 2.79 2.807 2.805 2.815 2.832 2.841 2.85 2.869 2.878 2.888 2.915 2.933 2.949 2.971 2.989 3.007 3.034 3.054 3.082 3.106 3.134 3.17 3.198 3.236 3.264 3.302 3.34 3.386 3.423 3.475 3.511 3.572 3.616 3.669 3.72 3.794 3.85 3.925 3.997 4.07 4.145 4.228 4.31 4.41 4.506 4.625 4.742 4.867 4.97 5.081 5.196 5.333 5.491 5.665 5.857 6.061 6.293 6.543 8.862 7.299 7.532 7.876 8.228 8.522 8.954 9.633 10.534 10.661 11.414 12.273 13.264 14.379 14.68 17.601 19.75 22.331 22.3 13.748 22.585 29.504 29.835 29.94 22.479 22.183 22.192 22.215 17.412 14.21 11.882 10.324 8.766 7.765 7.187 6.656 5.833 5.623 5.293 4.938 4.692 4.173 4.003 3.778 3.592 3.424 3.285 3.136 3.009 2.954 2.936 2.822 2.739 2.653 2.495 2.541 2.427 2.357 2.301 2.235 2.197 2.145 2.089 2.044 1.999 1.955 1.913 1.876 1.849 1.741 1.699 1.672 1.645 1.627 1.6 1.573 1.555 1.528 1.51 1.493 1.472 1.455 1.445 1.428 1.419 1.419 1.418 1.422 1.418 1.407 1.395 1.389 1.369 1.359 1.359 1.344 1.334 1.323 1.323 1.316 1.307 1.297 1.296 1.293 1.294 1.287 1.279 1.28 1.27 1.271 1.27 1.271 1.271 1.272 1.279 1.298 1.279 8.51167 13.177 1.61990 0 0 0 pippo 0
FLASER 181 2.756 2.757 2.749 2.749 2.739 2.739 2.739 2.737 2.737 2.745 2.745 2.746 2.754 2.763 2.764 2.772 2.781 2.79 2.799 2.816 2.815 2.833 2.852 2.871 2.88 2.899 2.909 2.936 2.955 2.975 2.994 3.021 3.048 3.075 3.101 3.129 3.164 3.192 3.22 3.258 3.305 3.334 3.38 3.425 3.47 3.524 3.567 3.629 3.69 3.743 3.807 3.876 3.939 4.011 4.094 4.168 4.261 4.345 4.451 4.55 4.667 4.783 4.908 5.024 5.135 5.274 5.429 5.597 5.765 5.961 6.171 6.889 6.81 7.055 7.364 7.713 7.927 8.316 8.904 9.41 10.008 10.375 11.076 11.9 12.835 13.87 15.371 16.92 18.964 21.61 21.802 21.766 22.036 28.959 29.341 29.351 29.424 21.673 21.683 21.71 19.469 15.191 12.502 11.305 9.83 8.19 7.356 7.074 6.471 5.619 5.222 5.142 4.829 4.54 4.238 4.083 3.727 3.546 3.393 3.252 3.121 3.005 2.892 2.783 2.688 2.6 2.556 2.506 2.501 2.424 2.369 2.298 2.243 2.173 2.095 2.109 2.062 2.009 1.973 1.924 1.894 1.859 1.823 1.794 1.767 1.742 1.715 1.68 1.664 1.639 1.621 1.593 1.578 1.559 1.541 1.495 1.467 1.43 1.42 1.401 1.392 1.383 1.374 1.363 1.346 1.346 1.335 1.317 1.309 1.299 1.299 1.291 1.29 1.282 1.282 1.274 1.274 1.274 1.28 1.283 1.287 8.53215 13.6873 1.469570 0 0 0 pippo 0
